[
  {
    "id": "CHN",
    "label": "China",
    "longitude": 106.3373,
    "latitude": 32.4982,
    "region": "Asia",
    "dva_usd_m": 412446.477,
    "dva_norm": 1,
    "out_deg": 61,
    "in_deg": 50,
    "bc_l1": 0.1111,
    "bc_l2": 0,
    "bc_l3": 0.2124,
    "bc_l4": 0,
    "bc_l5": 0.5625,
    "bc_l6": 0.8208,
    "bc_max": 0.8208,
    "node_role": "hub"
  },
  {
    "id": "CAN",
    "label": "Canada",
    "longitude": -101.9107,
    "latitude": 60.3243,
    "region": "Americas",
    "dva_usd_m": 5642.365,
    "dva_norm": 0.0137,
    "out_deg": 1,
    "in_deg": 5,
    "bc_l1": 0,
    "bc_l2": 0,
    "bc_l3": 0,
    "bc_l4": 0,
    "bc_l5": 0,
    "bc_l6": 0,
    "bc_max": 0,
    "node_role": "importer"
  },
  {
    "id": "DEU",
    "label": "Germany",
    "longitude": 9.6783,
    "latitude": 50.9617,
    "region": "Europe",
    "dva_usd_m": 64936.659,
    "dva_norm": 0.1574,
    "out_deg": 46,
    "in_deg": 32,
    "bc_l1": 0.0278,
    "bc_l2": 0,
    "bc_l3": 0,
    "bc_l4": 0,
    "bc_l5": 0,
    "bc_l6": 0,
    "bc_max": 0.0278,
    "node_role": "hub"
  },
  {
    "id": "JPN",
    "label": "Japan",
    "longitude": 138.4422,
    "latitude": 36.1425,
    "region": "Asia",
    "dva_usd_m": 57307.941,
    "dva_norm": 0.1389,
    "out_deg": 54,
    "in_deg": 34,
    "bc_l1": 0,
    "bc_l2": 0.125,
    "bc_l3": 0.2386,
    "bc_l4": 0,
    "bc_l5": 0,
    "bc_l6": 0,
    "bc_max": 0.2386,
    "node_role": "exporter"
  },
  {
    "id": "RUS",
    "label": "Russia",
    "longitude": 44.6865,
    "latitude": 58.2494,
    "region": "Europe",
    "dva_usd_m": 2137.749,
    "dva_norm": 0.0052,
    "out_deg": 1,
    "in_deg": 0,
    "bc_l1": 0,
    "bc_l2": 0,
    "bc_l3": 0,
    "bc_l4": 0,
    "bc_l5": 0,
    "bc_l6": 0,
    "bc_max": 0,
    "node_role": "exporter"
  },
  {
    "id": "USA",
    "label": "United States of America",
    "longitude": -97.4826,
    "latitude": 39.5385,
    "region": "Americas",
    "dva_usd_m": 98303.107,
    "dva_norm": 0.2383,
    "out_deg": 66,
    "in_deg": 50,
    "bc_l1": 0,
    "bc_l2": 0,
    "bc_l3": 0.4183,
    "bc_l4": 0.6654,
    "bc_l5": 0,
    "bc_l6": 0,
    "bc_max": 0.6654,
    "node_role": "hub"
  },
  {
    "id": "KOR",
    "label": "South Korea",
    "longitude": 128.1295,
    "latitude": 36.3849,
    "region": "Asia",
    "dva_usd_m": 105840.344,
    "dva_norm": 0.2566,
    "out_deg": 56,
    "in_deg": 42,
    "bc_l1": 0,
    "bc_l2": 0.0179,
    "bc_l3": 0.1471,
    "bc_l4": 0.4412,
    "bc_l5": 0,
    "bc_l6": 0,
    "bc_max": 0.4412,
    "node_role": "hub"
  },
  {
    "id": "BEL",
    "label": "Belgium",
    "longitude": 4.8004,
    "latitude": 50.7854,
    "region": "Europe",
    "dva_usd_m": 2011.653,
    "dva_norm": 0.0049,
    "out_deg": 2,
    "in_deg": 1,
    "bc_l1": 0,
    "bc_l2": 0,
    "bc_l3": 0,
    "bc_l4": 0,
    "bc_l5": 0,
    "bc_l6": 0,
    "bc_max": 0,
    "node_role": "exporter"
  },
  {
    "id": "NLD",
    "label": "Netherlands",
    "longitude": 5.6114,
    "latitude": 52.4222,
    "region": "Europe",
    "dva_usd_m": 11274.87,
    "dva_norm": 0.0273,
    "out_deg": 30,
    "in_deg": 26,
    "bc_l1": 0,
    "bc_l2": 0,
    "bc_l3": 0,
    "bc_l4": 0,
    "bc_l5": 0,
    "bc_l6": 0,
    "bc_max": 0,
    "node_role": "hub"
  },
  {
    "id": "MYS",
    "label": "Malaysia",
    "longitude": 113.8371,
    "latitude": 2.5287,
    "region": "Asia",
    "dva_usd_m": 25433.248,
    "dva_norm": 0.0617,
    "out_deg": 56,
    "in_deg": 29,
    "bc_l1": 0,
    "bc_l2": 0,
    "bc_l3": 0,
    "bc_l4": 0,
    "bc_l5": 0,
    "bc_l6": 0,
    "bc_max": 0,
    "node_role": "exporter"
  },
  {
    "id": "HKG",
    "label": "Hong Kong",
    "longitude": 114.17,
    "latitude": 22.32,
    "region": "Asia",
    "dva_usd_m": 501.504,
    "dva_norm": 0.0012,
    "out_deg": 58,
    "in_deg": 45,
    "bc_l1": 0,
    "bc_l2": 0,
    "bc_l3": 0,
    "bc_l4": 0,
    "bc_l5": 0.6397,
    "bc_l6": 0,
    "bc_max": 0.6397,
    "node_role": "hub"
  },
  {
    "id": "AUT",
    "label": "Austria",
    "longitude": 14.1305,
    "latitude": 47.5189,
    "region": "Europe",
    "dva_usd_m": 4915.8,
    "dva_norm": 0.0119,
    "out_deg": 7,
    "in_deg": 4,
    "bc_l1": 0,
    "bc_l2": 0,
    "bc_l3": 0,
    "bc_l4": 0,
    "bc_l5": 0,
    "bc_l6": 0,
    "bc_max": 0,
    "node_role": "exporter"
  },
  {
    "id": "GBR",
    "label": "United Kingdom",
    "longitude": -2.1163,
    "latitude": 54.4027,
    "region": "Europe",
    "dva_usd_m": 8440.887,
    "dva_norm": 0.0205,
    "out_deg": 2,
    "in_deg": 7,
    "bc_l1": 0,
    "bc_l2": 0,
    "bc_l3": 0,
    "bc_l4": 0,
    "bc_l5": 0,
    "bc_l6": 0,
    "bc_max": 0,
    "node_role": "importer"
  },
  {
    "id": "CHE",
    "label": "Switzerland",
    "longitude": 7.464,
    "latitude": 46.7191,
    "region": "Europe",
    "dva_usd_m": 18779.653,
    "dva_norm": 0.0455,
    "out_deg": 1,
    "in_deg": 0,
    "bc_l1": 0,
    "bc_l2": 0,
    "bc_l3": 0,
    "bc_l4": 0,
    "bc_l5": 0,
    "bc_l6": 0,
    "bc_max": 0,
    "node_role": "exporter"
  },
  {
    "id": "FRA",
    "label": "France",
    "longitude": 2.5523,
    "latitude": 46.6961,
    "region": "Europe",
    "dva_usd_m": 16879.319,
    "dva_norm": 0.0409,
    "out_deg": 12,
    "in_deg": 21,
    "bc_l1": 0,
    "bc_l2": 0,
    "bc_l3": 0,
    "bc_l4": 0,
    "bc_l5": 0,
    "bc_l6": 0,
    "bc_max": 0,
    "node_role": "importer"
  },
  {
    "id": "IND",
    "label": "India",
    "longitude": 79.3581,
    "latitude": 22.6869,
    "region": "Asia",
    "dva_usd_m": 12896.926,
    "dva_norm": 0.0313,
    "out_deg": 4,
    "in_deg": 22,
    "bc_l1": 0,
    "bc_l2": 0,
    "bc_l3": 0,
    "bc_l4": 0,
    "bc_l5": 0,
    "bc_l6": 0,
    "bc_max": 0,
    "node_role": "importer"
  },
  {
    "id": "MEX",
    "label": "Mexico",
    "longitude": -102.2894,
    "latitude": 23.92,
    "region": "Americas",
    "dva_usd_m": 27086.253,
    "dva_norm": 0.0657,
    "out_deg": 2,
    "in_deg": 27,
    "bc_l1": 0,
    "bc_l2": 0,
    "bc_l3": 0,
    "bc_l4": 0,
    "bc_l5": 0,
    "bc_l6": 0,
    "bc_max": 0,
    "node_role": "importer"
  },
  {
    "id": "IRL",
    "label": "Ireland",
    "longitude": -7.7986,
    "latitude": 53.0787,
    "region": "Europe",
    "dva_usd_m": 7456.392,
    "dva_norm": 0.0181,
    "out_deg": 5,
    "in_deg": 14,
    "bc_l1": 0,
    "bc_l2": 0,
    "bc_l3": 0,
    "bc_l4": 0,
    "bc_l5": 0,
    "bc_l6": 0,
    "bc_max": 0,
    "node_role": "importer"
  },
  {
    "id": "ARE",
    "label": "United Arab Emirates",
    "longitude": 54.5473,
    "latitude": 23.4663,
    "region": "Asia",
    "dva_usd_m": 267.173,
    "dva_norm": 0.0006,
    "out_deg": 2,
    "in_deg": 4,
    "bc_l1": 0,
    "bc_l2": 0,
    "bc_l3": 0,
    "bc_l4": 0,
    "bc_l5": 0,
    "bc_l6": 0,
    "bc_max": 0,
    "node_role": "importer"
  },
  {
    "id": "PHL",
    "label": "Philippines",
    "longitude": 122.465,
    "latitude": 11.198,
    "region": "Asia",
    "dva_usd_m": 8036.882,
    "dva_norm": 0.0195,
    "out_deg": 14,
    "in_deg": 19,
    "bc_l1": 0,
    "bc_l2": 0,
    "bc_l3": 0,
    "bc_l4": 0,
    "bc_l5": 0,
    "bc_l6": 0,
    "bc_max": 0,
    "node_role": "hub"
  },
  {
    "id": "VNM",
    "label": "Vietnam",
    "longitude": 105.3873,
    "latitude": 21.7154,
    "region": "Asia",
    "dva_usd_m": 45231.832,
    "dva_norm": 0.1097,
    "out_deg": 22,
    "in_deg": 20,
    "bc_l1": 0,
    "bc_l2": 0,
    "bc_l3": 0,
    "bc_l4": 0,
    "bc_l5": 0,
    "bc_l6": 0,
    "bc_max": 0,
    "node_role": "hub"
  },
  {
    "id": "THA",
    "label": "Thailand",
    "longitude": 101.0732,
    "latitude": 15.4597,
    "region": "Asia",
    "dva_usd_m": 17747.408,
    "dva_norm": 0.043,
    "out_deg": 17,
    "in_deg": 16,
    "bc_l1": 0,
    "bc_l2": 0,
    "bc_l3": 0,
    "bc_l4": 0,
    "bc_l5": 0,
    "bc_l6": 0,
    "bc_max": 0,
    "node_role": "hub"
  },
  {
    "id": "ISR",
    "label": "Israel",
    "longitude": 34.8479,
    "latitude": 30.9111,
    "region": "Asia",
    "dva_usd_m": 8258.97,
    "dva_norm": 0.02,
    "out_deg": 2,
    "in_deg": 4,
    "bc_l1": 0,
    "bc_l2": 0,
    "bc_l3": 0,
    "bc_l4": 0,
    "bc_l5": 0,
    "bc_l6": 0,
    "bc_max": 0,
    "node_role": "importer"
  },
  {
    "id": "ITA",
    "label": "Italy",
    "longitude": 11.0769,
    "latitude": 44.7325,
    "region": "Europe",
    "dva_usd_m": 7473.487,
    "dva_norm": 0.0181,
    "out_deg": 4,
    "in_deg": 14,
    "bc_l1": 0,
    "bc_l2": 0,
    "bc_l3": 0,
    "bc_l4": 0,
    "bc_l5": 0,
    "bc_l6": 0,
    "bc_max": 0,
    "node_role": "importer"
  }
]
